,City,Cloudiness,Country,Date,Humidity,Latitude,Longitude,Max_Temp,Wind_Speed
0,Clyde River,56,CA,1554598800,92,70.47,-68.59,6.8,21.92
1,Albany,20,US,1554601225,61,42.65,-73.75,48.2,4.38
2,Bluff,0,AU,1554601522,43,-23.58,149.07,84.9,10.54
3,Punta Arenas,75,CL,1554600148,81,-53.16,-70.91,44.6,36.91
4,Gwadar,8,PK,1554601522,74,25.12,62.33,78.6,6.96
5,Makakilo City,1,US,1554601508,58,21.35,-158.09,84.2,12.75
6,Bathsheba,20,BB,1554598800,65,13.22,-59.52,78.8,21.92
7,Thompson,75,CA,1554598800,38,55.74,-97.86,24.8,9.17
8,New Norfolk,75,AU,1554601221,45,-42.78,147.06,68.0,13.87
9,Kavieng,24,PG,1554601523,100,-2.57,150.8,83.55,4.16
10,Sao Joao da Barra,32,BR,1554601523,95,-21.64,-41.05,81.93,23.06
11,Nador,20,MA,1554598800,62,35.17,-2.93,59.0,11.41
12,Kapaa,75,US,1554601416,65,22.08,-159.32,80.6,14.99
13,Mataura,0,NZ,1554601205,55,-46.19,168.86,61.0,3.94
14,Kodiak,1,US,1554601509,79,39.95,-94.76,69.8,14.99
15,Puerto Ayora,0,EC,1554600642,92,-0.74,-90.35,79.0,6.73
16,Bereda,92,ES,1554601444,93,43.27,-7.54,46.99,4.7
17,Desbiens,20,CA,1554601024,80,48.42,-71.95,34.0,10.29
18,Busselton,0,AU,1554601517,45,-33.64,115.35,66.99,7.74
19,Jamestown,0,AU,1554601241,36,-33.21,138.6,73.65,18.81
20,Lazaro Cardenas,40,MX,1554598140,19,28.39,-105.62,69.8,9.17
21,Shimoda,0,JP,1554601512,55,34.7,138.93,72.0,5.82
22,Coihaique,0,CL,1554598800,76,-45.58,-72.07,51.8,2.24
23,Atar,0,MR,1554601526,53,20.52,-13.05,52.95,5.61
24,Umm Kaddadah,0,SD,1554601526,26,13.6,26.69,60.78,5.39
25,Avarua,36,CK,1554598800,65,-21.21,-159.78,82.4,12.75
26,Yulara,0,AU,1554598800,27,-25.24,130.99,86.0,11.41
27,Port Macquarie,0,AU,1554601505,51,-31.43,152.91,86.0,2.24
28,Port Hardy,90,CA,1554598800,93,50.7,-127.42,44.6,12.75
29,Prince Rupert,20,CA,1554598800,43,54.32,-130.32,55.4,10.29
30,Hithadhoo,8,MV,1554601256,100,-0.6,73.08,84.45,6.17
31,Fallon,75,US,1554598560,39,46.84,-105.12,62.6,5.82
32,Lagoa,40,PT,1554601523,82,37.14,-8.45,55.4,14.99
33,Rikitea,56,PF,1554601248,100,-23.12,-134.97,78.06,13.0
34,Cidreira,80,BR,1554601528,95,-30.17,-50.22,69.96,8.63
35,Sabya,0,YE,1554601528,89,16.19,43.1,69.42,0.58
36,Butaritari,92,KI,1554601528,100,3.07,172.79,79.77,8.41
37,Sabha,0,LY,1554601508,55,27.03,14.43,61.05,3.94
38,Broome,80,GB,1554601505,100,52.47,1.45,46.0,6.93
39,Rawson,0,AR,1554601529,47,-43.3,-65.11,63.3,8.41
40,Tucuman,0,PE,1554601529,88,-17.17,-70.89,52.05,2.26
41,Muros,40,ES,1554601514,93,42.77,-9.06,48.99,2.24
42,Rio Cuarto,0,AR,1554601529,63,-33.13,-64.35,57.18,11.21
43,Cape Town,0,ZA,1554601091,82,-33.93,18.42,63.0,11.41
44,Progreso,48,UY,1554600685,77,-34.68,-56.22,64.0,3.6
45,San Borja,36,BO,1554601530,72,-14.86,-66.75,63.75,2.26
46,Byron Bay,40,AU,1554601457,57,-28.65,153.62,82.99,11.41
47,Apiai,92,BR,1554601530,98,-24.51,-48.84,68.43,1.92
48,Nobres,76,BR,1554601530,90,-14.72,-56.34,68.07,3.6
49,Ushuaia,90,AR,1554598800,100,-54.81,-68.31,35.6,6.93
50,Belyy Yar,40,RU,1554598800,68,53.6,91.39,33.8,8.95
51,Port Alfred,12,ZA,1554601330,92,-33.59,26.89,61.0,15.57
52,Flinders,0,AU,1554601507,47,-34.58,150.85,81.0,5.82
53,Aliwal North,44,ZA,1554601531,90,-30.69,26.71,50.16,2.93
54,Vaini,0,IN,1554598800,88,15.34,74.49,69.8,3.04
55,Imbituba,75,BR,1554598800,94,-28.24,-48.67,69.8,4.7
56,Kaitangata,0,NZ,1554601158,55,-46.28,169.85,59.0,13.0
57,Dicabisagan,0,PH,1554601532,86,17.08,122.42,82.83,6.29
58,Canar,90,EC,1554598800,87,-2.55,-78.93,59.0,8.05
59,Lebu,0,ET,1554601607,83,8.96,38.73,45.57,2.71
60,Mangrol,48,IN,1554598800,32,25.33,76.51,84.2,4.7
61,Kogon,0,UZ,1554598800,82,39.73,64.54,55.4,11.41
62,Hobart,75,AU,1554601575,45,-42.88,147.33,66.99,13.87
63,Manavalakurichi,20,IN,1554598800,79,8.13,77.3,84.2,5.82
64,Villarrica,0,CL,1554601589,93,-39.28,-72.23,50.0,2.24
65,Ostrovnoy,68,RU,1554601609,98,68.05,39.51,25.68,3.49
66,Alofi,56,NU,1554598800,79,-19.06,-169.92,86.0,6.93
67,Ariquemes,8,BR,1554601609,83,-9.91,-63.03,71.04,4.16
68,Providencia,12,CO,1554601609,87,1.24,-77.6,51.96,2.15
69,Edeia,32,BR,1554601610,96,-17.34,-49.93,70.95,3.27
70,Ponta Delgada,75,PT,1554601324,87,37.73,-25.67,57.2,16.11
71,Longyearbyen,20,NO,1554598200,66,78.22,15.63,15.8,16.11
72,Atuona,44,PF,1554601610,98,-9.8,-139.03,83.1,12.1
73,Henties Bay,92,NA,1554598937,88,-22.12,14.28,59.0,5.01
74,Bredasdorp,48,ZA,1554601526,87,-34.53,20.04,62.01,3.36
75,Hambantota,5,LK,1554599400,100,6.12,81.12,77.0,2.24
76,Khatanga,92,RU,1554601611,94,71.98,102.47,12.63,11.43
77,Pontes e Lacerda,92,BR,1554601419,88,-15.23,-59.33,68.7,3.38
78,Castro,90,CL,1554598800,100,-42.48,-73.76,53.6,9.17
79,Arraial do Cabo,32,BR,1554601611,94,-22.97,-42.02,79.23,5.39
80,Salamanca,92,ES,1554600593,80,40.97,-5.66,39.2,14.99
81,Acari,92,BR,1554601612,97,-6.44,-36.64,70.95,2.93
82,Dikson,80,RU,1554601612,100,73.51,80.55,16.23,3.71
83,Cayenne,0,GF,1554598800,88,4.94,-52.33,77.0,3.36
84,Qaanaaq,68,GL,1554601612,82,77.48,-69.36,15.78,10.76
85,Chuy,88,UY,1554601613,91,-33.69,-53.46,62.04,4.61
86,Dunedin,0,NZ,1554601347,60,-45.87,170.5,57.99,21.99
87,Linxia,0,CN,1554601613,25,35.6,103.21,55.83,3.38
88,Harper,75,US,1554601515,78,30.3,-99.24,73.99,6.93
89,Putignano,0,IT,1554601584,93,40.85,17.12,55.0,5.82
90,Sechura,20,PE,1554601613,82,-5.56,-80.82,73.2,8.75
91,Warrington,0,GB,1554601584,81,53.39,-2.59,46.99,4.7
92,Minbu,0,MM,1554601614,53,20.18,94.88,88.23,4.27
93,Senador Jose Porfirio,92,BR,1554601614,94,-2.59,-51.95,78.33,4.94
94,Erzin,75,TR,1554601335,77,36.95,36.2,61.0,4.7
95,Barrow,0,AR,1554601614,51,-38.31,-60.23,60.6,12.77
96,Geraldton,20,CA,1554598800,75,49.72,-86.95,32.0,2.24
97,Pisco,0,PE,1554598800,78,-13.71,-76.2,73.4,6.93
98,Hamilton,75,BM,1554601576,88,32.3,-64.78,68.0,3.36
99,Carnarvon,20,ZA,1554601615,76,-30.97,22.13,48.72,8.63
100,Tuktoyaktuk,40,CA,1554598800,77,69.44,-133.03,3.2,13.87
101,Kincardine,90,GB,1554601600,100,56.07,-3.72,46.4,10.29
102,Katsuura,75,JP,1554600902,51,33.93,134.5,64.4,2.24
103,Redditch,90,GB,1554601567,93,52.31,-1.94,46.0,5.82
104,Bethel,1,US,1554598560,48,60.79,-161.76,39.2,13.87
105,Qaqortoq,88,GL,1554598200,80,60.72,-46.03,33.8,2.24
106,Walvis Bay,64,NA,1554598937,87,-22.95,14.51,59.0,9.17
107,Saint-Augustin,20,FR,1554601528,93,44.83,-0.61,42.01,2.24
108,Kyren,20,RU,1554601618,70,51.68,102.13,28.11,2.71
109,Rio Grande,76,BR,1554601409,96,-32.03,-52.1,69.6,10.65
110,Talcahuano,0,CL,1554598800,82,-36.72,-73.12,57.2,2.24
111,Coahuayana,32,MX,1554601619,47,18.62,-100.35,67.8,2.82
112,Hermanus,64,ZA,1554601526,87,-34.42,19.24,62.01,7.0
113,Iqaluit,75,CA,1554598800,67,63.75,-68.52,19.4,7.18
114,Yellowknife,90,CA,1554601232,67,62.45,-114.38,21.2,14.99
115,Faanui,80,PF,1554601619,98,-16.48,-151.75,85.35,16.02
116,Jaten,20,ID,1554598800,78,-7.39,110.69,82.4,2.24
117,Yangjiang,92,CN,1554601602,69,21.85,111.96,82.0,7.96
118,Jardim,68,BR,1554601620,91,-21.48,-56.15,64.83,8.97
119,Tigil,0,RU,1554601620,91,57.8,158.67,35.13,9.31
120,Cabo San Lucas,5,MX,1554601259,64,22.89,-109.91,75.2,9.17
121,Gizo,0,IL,1554601547,63,31.8,34.94,61.0,3.36
122,Manta,32,RO,1554601621,62,45.1,24.1,43.14,8.08
123,Ribeira Grande,44,PT,1554601621,100,38.52,-28.7,58.8,27.54
124,Khash,0,IR,1554601621,52,28.22,61.21,54.75,2.48
125,Adrar,0,DZ,1554598800,39,27.87,-0.29,62.6,8.05
126,Tuatapere,0,NZ,1554601205,55,-46.13,167.69,61.0,5.39
127,Namibe,8,AO,1554601622,100,-15.19,12.15,77.43,7.07
128,Parrita,75,CR,1554601600,83,9.52,-84.33,73.4,3.36
129,Nikolskoye,0,RU,1554601536,80,59.7,30.79,35.01,6.71
130,Derzhavinsk,0,KZ,1554601622,75,51.1,66.31,36.93,9.64
131,Kiunga,76,PG,1554601623,88,-6.12,141.3,79.5,2.71
132,Qasigiannguit,76,GL,1554598200,47,68.82,-51.19,37.4,35.57
133,Whitehorse,75,CA,1554601503,56,60.72,-135.06,43.0,9.17
134,Hasaki,75,JP,1554601062,63,35.73,140.83,66.99,4.7
135,Saint-Philippe,1,CA,1554601617,80,45.36,-73.48,42.01,4.7
136,Ambilobe,0,MG,1554601624,82,-13.19,49.05,70.86,6.17
137,Dhidhdhoo,0,MV,1554601374,100,6.88,73.1,83.64,3.27
138,Zhuhai,20,CN,1554598800,21,40.71,112.04,51.8,2.24
139,Cookeville,75,US,1554601578,63,36.16,-85.5,66.2,4.7
140,Mananjary,0,MG,1554601624,90,-19.16,46.8,56.91,5.61
141,Grand Gaube,75,MU,1554601440,69,-20.01,57.66,80.6,11.41
142,Nanortalik,80,GL,1554601624,95,60.14,-45.24,32.34,13.33
143,Pevek,0,RU,1554601625,83,69.7,170.27,13.08,6.51
144,Nimaparha,20,IN,1554598800,65,20.07,86.02,78.8,12.77
145,Najran,0,SA,1554598800,72,17.54,44.22,66.2,6.93
146,Gunjur,0,GM,1554598800,57,13.18,-16.76,75.2,8.05
147,Pacific Grove,1,US,1554601599,67,36.62,-121.92,64.4,9.17
148,Constitucion,5,MX,1554597840,10,23.99,-104.67,71.6,16.11
149,Novo Cruzeiro,0,BR,1554601626,88,-17.47,-41.88,69.24,6.85
150,Myitkyina,12,MM,1554601353,68,25.38,97.4,77.25,2.04
151,Kruisfontein,0,ZA,1554601626,83,-34.0,24.73,59.34,10.42
152,Port Elizabeth,1,US,1554601624,76,39.31,-74.98,57.2,5.17
153,Abu Samrah,24,SY,1554601626,96,35.3,37.18,54.12,1.7
154,Pizarro,32,CO,1554601627,94,4.95,-77.37,77.16,2.59
155,Anaco,32,VE,1554601627,83,9.43,-64.46,73.74,15.35
156,Biak,76,ID,1554601627,83,-0.91,122.88,85.44,2.15
157,Kyshtovka,12,RU,1554601627,87,56.56,76.62,24.42,4.83
158,Jiwani,8,PK,1554601627,81,25.05,61.74,76.8,5.39
159,Keuruu,0,FI,1554601599,86,62.26,24.71,28.4,4.7
160,Sao Jose da Coroa Grande,68,BR,1554601628,93,-8.9,-35.15,76.8,4.16
161,Chiltepec,48,MX,1554601628,74,18.48,-96.9,61.95,1.92
162,Phan Thiet,12,VN,1554601341,79,10.93,108.1,85.62,12.33
163,Muskegon,75,US,1554601326,66,43.23,-86.25,57.99,6.96
164,Yumen,76,CN,1554601628,35,40.29,97.04,59.43,3.15
165,Lawrence,90,US,1554601328,56,38.97,-95.24,71.6,9.17
166,Coquimbo,0,CL,1554598800,93,-29.95,-71.34,57.2,4.16
167,Codrington,8,AU,1554601457,51,-28.95,153.24,82.99,5.82
168,Kuusamo,0,FI,1554600000,92,65.96,29.19,19.4,1.12
169,Esperance,20,TT,1554601584,78,10.24,-61.45,77.0,6.93
170,Loei,0,TH,1554600288,78,17.49,101.72,80.01,5.82
171,Georgetown,20,GY,1554598800,78,6.8,-58.16,80.6,9.17
172,Kyzyl-Suu,68,KG,1554601630,100,42.34,78.0,36.3,1.92
173,Manati,75,AL,1554600000,71,41.76,19.67,55.4,5.82
174,Changli,0,CN,1554601631,67,30.54,105.42,76.26,4.38
175,Fortuna,20,ES,1554601566,61,38.18,-1.13,53.6,6.93
176,Torbay,90,CA,1554601600,89,47.66,-52.73,33.01,11.41
177,Dickinson,75,US,1554601335,81,46.88,-102.79,53.01,2.04
178,San Carlos,0,VE,1554601632,54,9.66,-68.59,79.05,8.63
179,Biltine,0,TD,1554601632,34,14.53,20.93,65.19,6.06
180,Paldiski,0,EE,1554601626,55,59.35,24.08,37.99,3.36
181,College,75,US,1554601515,41,64.86,-147.8,44.01,9.17
182,Brae,24,GB,1554600000,70,60.4,-1.35,42.8,16.11
183,Tasiilaq,92,GL,1554598200,54,65.61,-37.64,30.2,41.38
184,Klaksvik,56,FO,1554600000,97,62.23,-6.59,41.0,10.29
185,Quatre Cocos,75,MU,1554601440,69,-20.21,57.76,80.6,11.41
186,Predejane,0,RS,1554601559,75,42.83,22.13,46.0,5.82
187,Aklavik,75,CA,1554598800,52,68.22,-135.01,17.6,9.17
188,Diego de Almagro,0,CL,1554601634,80,-26.39,-70.05,58.08,2.59
189,Hofn,76,IS,1554601365,100,64.25,-15.21,36.93,19.37
190,Vitim,0,RU,1554601634,65,59.44,112.57,32.61,3.38
191,Umm Lajj,88,SA,1554601634,87,25.02,37.27,65.82,4.83
192,Santa Maria,75,BR,1554598800,88,-29.69,-53.81,68.0,5.82
193,Teya,5,MX,1554601552,38,21.05,-89.07,91.4,17.22
194,Agvali,36,RU,1554601637,95,42.54,46.12,30.72,1.48
195,Ibra,24,OM,1554601637,49,22.69,58.55,65.82,0.69
196,Malanje,64,AO,1554601637,96,-9.54,16.35,66.9,2.48
197,Great Yarmouth,32,GB,1554601627,100,52.61,1.73,46.0,6.93
198,Meiganga,8,CM,1554601638,93,6.52,14.29,65.1,4.94
199,Saldanha,44,PT,1554601638,92,41.42,-6.55,35.85,5.06
200,Saurimo,68,AO,1554601638,97,-9.66,20.4,65.19,2.71
201,Omboue,64,GA,1554601638,100,-1.57,9.26,81.12,4.5
202,Mar del Plata,0,AR,1554601520,39,-46.43,-67.52,58.44,13.78
203,Upernavik,0,GL,1554601638,72,72.79,-56.15,30.99,17.47
204,Santa Rosalia,20,IT,1554601596,71,38.07,13.27,59.0,10.29
205,Norman Wells,20,CA,1554598800,58,65.28,-126.83,30.2,12.75
206,Genhe,64,CN,1554601639,74,50.78,121.52,30.99,6.29
207,Tual,48,ID,1554601639,100,-5.67,132.75,84.18,3.71
208,Buchanan,40,LR,1554598800,94,5.88,-10.05,78.8,8.19
209,Morgan City,75,US,1554601444,100,29.7,-91.21,75.2,8.05
210,Tandil,0,AR,1554601514,78,-37.33,-59.14,57.0,1.01
211,Grand-Santi,68,GF,1554601640,93,4.27,-54.38,74.82,3.15
212,Mgachi,0,RU,1554601640,78,51.05,142.27,34.86,12.77
213,Ponta do Sol,64,BR,1554601640,91,-20.63,-46.0,65.82,2.93
214,Provideniya,20,RU,1554601640,100,64.42,-173.23,18.93,9.98
215,Hervey Bay,75,AU,1554601509,54,-25.3,152.85,84.0,6.93
216,Victoria,90,BN,1554598800,79,5.28,115.24,86.0,2.24
217,Rocha,80,UY,1554601642,89,-34.48,-54.34,55.47,2.71
218,Mandawar,0,IN,1554601642,68,29.49,78.13,75.18,7.96
219,Chokurdakh,76,RU,1554601642,100,70.62,147.9,20.82,5.95
220,Cam Ranh,20,VN,1554598800,62,11.92,109.15,86.0,2.24
221,Andijan,0,UZ,1554598800,76,40.76,72.37,50.0,2.24
222,Wawa,12,NG,1554601643,65,9.9,4.41,81.48,10.98
223,Kropotkin,0,RU,1554601517,77,45.43,40.58,44.01,10.42
224,Fairbanks,75,US,1554601313,41,64.84,-147.72,41.0,9.17
225,Moberly,1,US,1554601252,52,39.42,-92.44,69.01,8.05
226,Payo,12,ID,1554601643,100,-3.75,103.64,80.13,2.15
227,Roebourne,0,AU,1554601643,12,-20.77,117.15,102.36,11.1
228,Trinidad,92,UY,1554601643,86,-33.52,-56.9,53.49,2.59
229,Loiza,20,PR,1554601238,65,18.43,-65.88,78.8,11.41
230,Tolmachevo,40,RU,1554601211,86,55.36,38.22,35.01,2.82
231,Raymond,20,US,1554601517,57,43.04,-71.18,50.0,9.17
232,Nuuk,0,GL,1554600122,59,64.17,-51.74,37.4,3.36
233,Shingu,0,JP,1554598800,48,33.72,135.99,66.2,4.7
234,Pangnirtung,92,CA,1554601644,78,66.15,-65.72,16.68,5.73
235,Itoman,75,JP,1554600148,83,26.12,127.67,77.0,6.93
236,Yinchuan,64,CN,1554601645,24,38.48,106.21,68.25,6.29
237,Lompoc,20,US,1554601385,77,34.64,-120.46,69.8,12.75
238,Nadvoitsy,56,RU,1554601645,79,63.89,34.27,26.58,2.48
239,Mahebourg,75,MU,1554601440,69,-20.41,57.7,80.6,11.41
240,Taraz,90,KZ,1554601623,100,42.89,71.39,52.0,2.24
241,Gamboma,48,CG,1554601646,95,-1.87,15.88,71.58,9.42
242,Nemuro,75,JP,1554598800,42,43.32,145.57,44.6,5.82
243,Jumla,44,NP,1554601646,97,29.28,82.18,36.84,1.36
244,Lasa,20,CY,1554598800,87,34.92,32.53,59.0,4.7
245,Sibi,24,PK,1554601646,58,29.55,67.88,72.57,5.5
246,Tommot,48,RU,1554601646,55,58.97,126.27,31.8,5.61
247,Marrakesh,40,MA,1554598800,87,31.63,-7.99,50.0,5.82
248,Berlevag,68,NO,1554601647,100,70.86,29.09,28.29,10.54
249,Kathmandu,75,NP,1554598200,87,27.71,85.32,59.0,3.36
250,Belaya Gora,32,RU,1554601647,100,68.54,146.19,25.41,4.27
251,Ilulissat,76,GL,1554598200,47,69.22,-51.1,37.4,35.57
252,Izhma,24,RU,1554601648,91,65.01,53.91,27.75,5.39
253,Taltal,0,CL,1554601648,90,-25.41,-70.49,52.68,2.26
254,Huarmey,32,PE,1554601648,90,-10.07,-78.15,63.03,3.04
255,Leshukonskoye,68,RU,1554601648,91,64.9,45.76,27.03,2.93
256,Ambon,90,FR,1554601643,100,47.55,-2.56,48.2,5.82
257,Leh,76,IN,1554601649,90,34.16,77.58,13.35,1.92
258,Tezu,0,IN,1554601649,48,27.93,96.16,70.59,0.58
259,Cherskiy,0,RU,1554601381,73,68.75,161.3,19.11,1.92
260,Kutum,0,SD,1554601649,27,14.2,24.66,58.26,7.4
261,Hilo,90,US,1554601592,65,19.71,-155.08,78.8,13.87
262,Tabou,12,CI,1554601649,98,4.42,-7.36,84.0,12.88
263,Olinda,40,EC,1554598800,69,-2.03,-79.75,82.4,9.17
264,Lavrentiya,8,RU,1554601650,99,65.58,-170.99,17.94,11.21
265,Puerto Ayacucho,0,CO,1554601650,80,5.66,-67.63,77.61,2.37
266,Soe,36,EE,1554601533,69,57.91,26.05,42.01,5.82
267,Shuyskoye,76,RU,1554601650,84,59.37,41.03,27.12,5.28
268,Agirish,0,RU,1554601650,62,61.92,63.02,28.02,4.83
269,Douglas,20,US,1554601611,36,31.34,-109.55,64.4,8.05
270,Alice Springs,0,AU,1554598800,28,-23.7,133.88,84.2,14.99
271,Boa Vista,0,BR,1554598800,45,2.82,-60.67,87.8,10.29
272,Sidi Ali,68,DZ,1554601652,98,36.1,0.42,48.81,14.0
273,Guerrero Negro,0,MX,1554601652,80,27.97,-114.04,61.77,12.55
274,La Ronge,90,CA,1554598800,55,55.1,-105.3,37.4,16.11
275,Khammam,0,IN,1554601653,63,17.25,80.15,82.92,6.29
276,Cairns,90,AU,1554601577,69,-16.92,145.77,82.4,13.87
277,Laguna,20,MX,1554597600,31,27.52,-110.01,77.0,6.93
278,Andes,48,CO,1554601524,99,5.66,-75.88,57.0,1.36
279,Vanderhoof,32,CA,1554601653,48,54.02,-124.02,42.6,7.4
280,Campos Belos,64,BR,1554601654,93,-13.04,-46.77,72.48,2.15
281,Kieta,80,PG,1554601654,95,-6.22,155.63,82.92,5.5
282,Arco,40,IT,1554601626,93,45.92,10.89,51.01,1.12
283,Luau,32,CD,1554601654,88,-10.7,22.23,69.33,3.6
284,Sioux Lookout,20,CA,1554598800,44,50.1,-91.92,41.0,3.36
285,Wamba,48,CD,1554601654,96,2.14,27.99,68.88,2.15
286,Ciawi,0,ID,1554601655,100,-6.7,108.44,84.36,1.7
287,Ketou,36,BJ,1554601655,92,7.36,2.6,78.42,7.96
288,Ekibastuz,12,KZ,1554601655,66,51.72,75.32,40.26,8.97
289,Charters Towers,20,AU,1554601655,75,-20.07,146.27,79.05,10.87
290,Bambous Virieux,75,MU,1554601440,69,-20.34,57.76,80.6,11.41
291,Dakar,8,SN,1554597000,56,14.69,-17.45,69.8,20.8
292,Salalah,20,OM,1554598200,78,17.01,54.1,77.0,5.82
293,Bandarbeyla,0,SO,1554601656,100,9.49,50.81,79.32,2.82
294,Dolores,68,UY,1554601656,86,-33.53,-58.22,54.93,2.93
295,Saint George,75,GR,1554598200,93,39.45,22.34,51.8,2.37
296,Chulman,64,RU,1554601657,56,56.84,124.9,29.28,8.97
297,Forest Grove,90,US,1554601479,81,45.52,-123.11,54.0,9.17
298,Mackay,40,CA,1554598800,45,53.65,-115.58,48.2,9.17
299,Vila Velha,75,BR,1554601093,78,-3.71,-38.6,81.0,3.36
300,Matara,12,PE,1554601658,92,-13.74,-72.9,37.65,1.92
301,Carauari,36,BR,1554601658,93,-4.88,-66.9,76.89,6.06
302,Touros,40,BR,1554598800,94,-5.2,-35.46,78.8,2.71
303,Pochutla,20,MX,1554601586,58,15.74,-96.47,84.2,11.41
304,Springfield,1,US,1554601449,63,37.22,-93.29,66.99,21.92
305,Buraydah,20,SA,1554598800,68,26.33,43.97,69.8,8.05
306,Brownwood,1,US,1554601580,77,31.71,-98.99,69.8,4.7
307,Conceicao do Araguaia,64,BR,1554601457,85,-8.26,-49.26,77.16,4.83
308,Kushiro,40,JP,1554598800,42,43.11,144.15,48.2,11.41
309,Cubuk,75,TR,1554601383,70,40.24,33.03,51.01,2.48
310,Romitan,0,UZ,1554598800,82,39.93,64.38,55.4,11.41
311,Ust-Nera,8,RU,1554601661,83,64.57,143.24,29.37,2.71
312,Lengshuitan,0,CN,1554601661,94,26.41,111.6,74.55,5.73
313,Madang,92,PG,1554601661,100,-5.21,145.81,77.52,2.15
314,Mikuni,75,JP,1554598800,54,36.22,136.15,53.6,4.7
315,Veraval,48,FR,1554601598,81,49.65,0.71,48.2,4.7
316,East London,64,ZA,1554601661,100,-33.02,27.91,69.33,15.68
317,Muromtsevo,0,RU,1554601662,81,56.37,75.24,25.32,4.5
318,Padang,40,ID,1554598800,83,-0.92,100.36,82.4,2.24
319,Hays,1,US,1554601545,77,38.88,-99.33,60.8,11.41
320,Lorengau,48,PG,1554601662,92,-2.02,147.27,85.53,7.18
321,Guarapari,20,BR,1554600854,83,-20.67,-40.5,80.6,5.82
322,Urdoma,8,RU,1554601663,98,61.74,48.55,29.19,5.61
323,Isangel,40,VU,1554598800,58,-19.55,169.27,82.4,14.99
324,Lagos,20,NG,1554598800,89,6.46,3.39,84.2,8.05
325,Te Anau,0,NZ,1554601663,42,-45.41,167.72,58.35,3.6
326,Tiksi,0,RU,1554601663,72,71.64,128.87,30.72,6.96
327,Havre-Saint-Pierre,40,CA,1554598800,92,50.23,-63.6,26.6,6.93
328,Jaunpur,75,IN,1554598800,57,25.75,82.69,75.2,2.24
329,Kahului,20,US,1554601467,48,20.89,-156.47,84.2,12.75
330,Narsaq,20,GL,1554598200,80,60.91,-46.05,33.8,2.24
331,Nantucket,1,US,1554601346,93,41.28,-70.1,48.2,6.93
332,Puerto Quijarro,8,BO,1554601664,85,-19.0,-57.72,68.16,6.17
333,Podgornoye,64,RU,1554601665,73,57.79,82.64,27.66,7.96
334,Jaguarao,76,BR,1554601665,89,-32.57,-53.38,63.48,4.38
335,Tautira,20,PF,1554600600,59,-17.73,-149.15,91.4,4.7
336,West Wendover,1,US,1554598560,25,40.74,-114.07,60.8,9.17
337,Uthal,0,PK,1554601665,45,25.81,66.62,76.98,2.59
338,Asyut,0,EG,1554598800,47,27.18,31.19,57.2,12.75
339,Yangambi,8,CD,1554601665,99,0.77,24.47,73.38,2.37
340,Namatanai,44,PG,1554601666,100,-3.66,152.44,83.37,2.93
341,Shahdadkot,0,PK,1554601666,32,27.85,67.91,86.52,4.94
342,Cooma,0,AU,1554598800,28,-36.24,149.13,69.8,10.29
343,Pechenga,80,RU,1554601666,95,58.89,41.46,31.8,3.6
344,Seymchan,44,RU,1554601666,86,62.93,152.39,30.54,7.4
345,North Bend,90,US,1554601617,93,43.41,-124.22,55.0,10.29
346,Yangcun,0,CN,1554601667,71,29.98,118.17,73.11,3.27
347,Husavik,80,CA,1554601203,72,50.56,-96.99,39.0,7.0
348,Edd,0,ER,1554601667,93,13.93,41.69,68.88,2.48
349,Gamba,68,CN,1554601667,91,28.28,88.52,22.35,2.71
350,Crossville,1,US,1554601407,63,35.95,-85.03,66.2,3.36
351,Dawson Creek,1,CA,1554598800,75,55.76,-120.23,42.8,8.05
352,Waipawa,92,NZ,1554601216,76,-39.94,176.59,55.99,4.61
353,Shenzhen,0,CN,1554601667,88,22.54,114.05,81.0,6.71
354,Kalvarija,48,LT,1554601669,57,54.41,23.23,41.61,11.99
355,Liberal,1,US,1554601643,55,37.04,-100.92,69.8,12.75
356,Porterville,1,US,1554601338,28,36.07,-119.02,78.8,9.17
357,Mount Gambier,90,AU,1554598800,67,-37.83,140.78,62.6,16.11
358,Tubmanburg,20,LR,1554601670,95,6.87,-10.82,75.99,7.29
359,Xining,0,CN,1554601587,26,36.62,101.77,52.59,3.38
360,Praia da Vitoria,40,PT,1554601556,93,38.73,-27.07,55.99,26.42
361,Jakar,92,BT,1554601670,97,27.55,90.75,34.14,0.92
362,Fort Nelson,90,CA,1554598800,80,58.81,-122.69,30.2,2.48
363,Bar Harbor,20,US,1554601638,65,44.39,-68.2,44.6,6.93
364,Cukai,75,MY,1554598800,94,4.25,103.42,80.6,3.15
365,Port Blair,0,IN,1554601671,100,11.67,92.75,83.64,5.06
366,Leningradskiy,0,RU,1554601671,91,69.38,178.42,7.5,9.86
367,Atambua,0,ID,1554601671,96,-9.11,124.89,82.83,4.16
368,Dvinskoy,0,RU,1554601672,79,62.16,45.12,24.42,2.59
369,Oga,8,NG,1554601672,73,8.18,5.65,80.04,12.21
370,Jinan,0,CN,1554601672,68,36.65,117.11,63.3,4.61
371,Vila,75,IT,1554601643,87,45.18,8.4,52.0,6.93
372,Bejar,64,AL,1554601673,92,40.49,19.83,51.15,3.71
373,Votice,0,CZ,1554601647,91,49.64,14.64,45.0,1.12
374,San Patricio,0,PY,1554601673,81,-26.98,-56.83,64.83,4.72
375,Lingyuan,48,CN,1554601673,59,41.24,119.4,46.02,5.95
376,Lata,8,IN,1554601673,82,30.78,78.62,54.03,1.7
377,Ketchikan,90,US,1554598560,53,55.34,-131.65,53.6,12.75
378,Dingle,36,PH,1554601674,92,11.0,122.67,81.66,8.97
379,Hay River,90,CA,1554598800,50,60.82,-115.79,33.8,9.17
380,Lavras da Mangabeira,75,BR,1554598800,88,-6.75,-38.96,75.2,2.71
381,Lima,40,PE,1554601327,88,-12.06,-77.04,73.0,8.05
382,Ust-Kuyga,12,RU,1554601674,88,70.0,135.55,26.49,4.16
383,San Angelo,1,US,1554601514,40,31.46,-100.44,73.99,3.36
384,Ust-Ilimsk,12,RU,1554601675,44,57.96,102.73,38.46,5.39
385,Deputatskiy,44,RU,1554601675,83,69.3,139.9,24.06,3.94
386,Richards Bay,80,ZA,1554601675,97,-28.77,32.06,62.58,3.94
387,Marsabit,0,KE,1554601675,67,2.34,37.99,72.93,7.4
388,Chabahar,12,IR,1554601675,91,25.29,60.65,78.42,8.75
389,Petropavlovsk-Kamchatskiy,40,RU,1554598800,55,53.05,158.65,39.2,11.18
390,Oktyabrskiy,20,RU,1554601211,100,55.61,37.97,35.01,2.37
391,Indianola,90,US,1554601577,55,40.24,-100.42,66.2,6.93
392,Rafaela,0,AR,1554601262,50,-31.25,-61.49,62.01,1.01
393,Duitama,92,CO,1554601676,96,5.83,-73.03,55.38,2.04
394,Vila Franca do Campo,75,PT,1554601624,87,37.72,-25.43,57.2,16.11
395,Nioro,0,GM,1554601676,29,13.79,-15.05,81.84,12.77
396,Samarai,92,PG,1554601677,100,-10.62,150.67,78.33,2.59
397,Warkworth,24,NZ,1554601384,59,-36.4,174.66,69.01,17.22
398,Bani Walid,56,LY,1554601677,80,31.76,14.0,53.31,2.59
399,Lhokseumawe,32,ID,1554601677,93,5.18,97.15,86.07,2.26
400,Comodoro Rivadavia,0,AR,1554598800,37,-45.87,-67.48,66.2,9.17
401,Oriximina,32,BR,1554601677,84,-1.77,-55.87,80.22,3.38
402,Camacha,40,PT,1554600600,82,33.08,-16.33,60.8,9.17
403,Eirunepe,92,BR,1554601678,97,-6.66,-69.87,75.0,3.38
404,Liling,0,CN,1554598800,60,27.65,113.49,73.4,8.95
405,Sorland,68,NO,1554601678,100,67.67,12.69,36.75,26.31
406,Karratha,0,AU,1554601678,12,-20.74,116.85,102.36,11.1
407,Platteville,1,US,1554601574,77,42.73,-90.48,64.4,8.05
408,Kiboga,68,UG,1554601679,95,0.92,31.77,64.02,5.95
409,Margaride,88,ES,1554601567,87,42.48,-7.34,39.0,1.01
410,Rio Gallegos,0,AR,1554598800,57,-51.62,-69.22,48.2,13.87
411,Souillac,20,FR,1554601528,93,45.6,-0.6,42.01,2.24
412,Peleduy,0,RU,1554601679,65,59.63,112.75,32.61,3.38
413,Okhotsk,24,RU,1554601679,61,59.36,143.24,42.51,5.39
414,Cururupu,92,BR,1554601680,100,-1.82,-44.87,73.92,2.71
415,Tocopilla,0,CL,1554601680,100,-22.09,-70.2,60.87,1.59
416,Zhigansk,0,RU,1554601680,71,66.77,123.37,32.88,3.38
417,Sananduva,92,BR,1554601680,94,-27.95,-51.81,62.22,7.29
418,Tevaitoa,92,PF,1554601680,96,-16.78,-151.5,85.08,15.01
419,San Cristobal,75,EC,1554601543,82,-0.39,-78.55,59.0,3.36
420,Montecristo,76,CO,1554601681,73,8.3,-74.47,79.32,1.36
421,Crestview,75,US,1554601563,100,30.76,-86.57,71.6,5.82
422,Kaputa,12,ZM,1554601681,94,-8.47,29.66,61.86,1.25
423,Maniitsoq,68,GL,1554601681,79,65.42,-52.9,32.61,15.01
424,Hobyo,0,SO,1554601682,91,5.35,48.53,77.34,7.63
425,Champerico,40,MX,1554598020,43,16.38,-93.6,87.8,5.82
426,Poum,0,MK,1554601682,90,41.28,20.71,31.53,1.7
427,Diplo,0,PK,1554601682,52,24.47,69.59,82.02,12.44
428,Lubumbashi,20,CD,1554601670,91,-11.66,27.48,61.68,3.83
429,Naze,20,NG,1554601682,93,5.43,7.07,74.55,5.17
430,San Quintin,20,PH,1554601683,79,17.54,120.52,84.9,3.71
431,Washim,0,IN,1554601683,27,20.1,77.14,84.81,9.75
432,Rapid Valley,1,US,1554601559,63,44.06,-103.15,60.8,5.82
433,Naduvattam,0,IN,1554601683,65,11.47,76.57,75.81,1.03
434,Mezhdurechensk,88,RU,1554601683,77,53.69,88.07,32.16,5.95
435,Taoudenni,8,ML,1554601683,41,22.68,-3.98,57.18,9.64
436,Thinadhoo,68,MV,1554601684,100,0.53,72.93,83.55,1.14
437,Constantine,20,DZ,1554598800,93,36.36,6.61,37.4,3.6
438,Vega Baja,20,PR,1554601627,65,18.44,-66.39,78.8,11.41
439,Kualakapuas,40,ID,1554598800,88,-3.01,114.39,82.4,5.82
440,Lulea,100,SE,1554600000,92,65.58,22.15,26.6,8.05
441,Mokhsogollokh,0,RU,1554601684,60,61.4,128.95,34.68,7.18
442,Bilibino,0,RU,1554601685,69,68.06,166.44,24.42,3.71
443,Luwuk,76,ID,1554601685,83,-0.95,122.79,85.44,2.15
444,Severo-Kurilsk,92,RU,1554601685,93,50.68,156.12,32.88,20.49
445,Saint-Denis,0,FR,1554601635,71,48.94,2.36,52.0,4.38
446,Jalu,68,LY,1554601686,63,29.03,21.55,60.78,6.96
447,Winnemucca,20,US,1554600690,52,40.97,-117.74,55.4,10.29
448,Ekhabi,88,RU,1554601686,100,53.51,142.97,30.72,13.44
449,Denpasar,40,ID,1554598800,79,-8.65,115.22,84.2,3.36
450,Kholuy,88,RU,1554601686,93,56.58,41.87,29.64,3.15
451,Homer,90,US,1554601620,70,59.64,-151.54,46.4,13.87
452,Arlit,12,NE,1554601687,25,18.74,7.39,72.93,8.41
453,Kilifi,0,KE,1554601687,91,-3.63,39.85,70.86,2.71
454,Seoul,1,KR,1554599400,76,37.57,126.98,55.4,5.82
455,Puerto Escondido,20,MX,1554597600,74,15.86,-97.07,80.6,11.41
456,Valparaiso,1,US,1554601618,67,41.47,-87.06,62.6,4.7
457,Staffanstorp,0,SE,1554601625,70,55.64,13.21,44.01,8.05
458,Chaihe,24,CN,1554601688,55,44.77,129.68,41.52,7.85
459,Sapa,20,PH,1554601685,55,14.32,120.76,91.0,4.7
460,Standerton,92,ZA,1554601595,98,-26.94,29.24,55.0,1.01
461,Clarksville,20,US,1554601401,56,36.53,-87.36,69.8,4.7
462,Kavaratti,24,IN,1554601689,100,10.57,72.64,84.09,8.75
463,Toamasina,40,MG,1554598800,94,-18.17,49.38,75.2,6.93
464,Onokhoy,0,RU,1554598800,49,51.92,108.05,24.8,4.47
465,La Tuque,76,CA,1554601690,84,47.44,-72.79,35.13,6.4
466,Samana,32,EC,1554601690,82,0.12,-76.97,78.06,2.37
467,Batsfjord,56,NO,1554601690,100,70.63,29.72,34.32,19.04
468,Alta Floresta,48,BR,1554601690,94,-9.87,-56.08,74.37,2.15
469,Stephenville,90,US,1554601613,93,32.22,-98.2,66.2,5.82
470,Nsanje,88,MZ,1554601690,85,-16.92,35.26,75.63,6.62
471,Antalaha,24,MG,1554601691,88,-14.9,50.28,77.61,9.19
472,Los Llanos de Aridane,44,ES,1554598800,72,28.66,-17.92,62.6,9.17
473,Westport,44,IE,1554601684,86,53.8,-9.52,45.0,3.49
474,Belawan,88,ID,1554601691,97,-0.59,114.46,77.16,2.48
475,Kidal,0,ML,1554601691,23,18.44,1.41,69.15,9.64
476,Ntcheu,88,MW,1554601691,84,-14.82,34.64,67.08,2.59
477,Tianpeng,0,CN,1554601692,83,28.88,112.34,79.05,7.4
478,Kupang,20,ID,1554598800,66,-10.16,123.6,86.0,2.24
479,Airai,48,TL,1554601692,62,-8.93,125.41,83.1,0.69
480,Elin Pelin,0,BG,1554601569,66,42.67,23.6,48.2,10.29
481,Bontang,8,ID,1554601693,90,0.12,117.47,84.45,5.17
482,Vila do Maio,40,CV,1554598800,73,15.13,-23.22,69.8,17.22
483,Nhamunda,24,BR,1554601693,78,-2.19,-56.71,80.94,3.71
484,Maraa,12,BR,1554601693,92,-1.83,-65.37,78.6,2.59
485,Beringovskiy,64,RU,1554601694,98,63.05,179.32,14.7,26.87
486,Mogadishu,0,SO,1554601624,100,2.04,45.34,82.29,12.66
487,Ocos,40,GT,1554597600,70,14.51,-92.19,84.2,4.7
488,Sao Filipe,0,CV,1554601694,96,14.9,-24.5,70.95,15.01
489,Boende,20,CD,1554601694,99,-0.28,20.88,70.23,2.15
490,Acajutla,36,SV,1554601599,70,13.59,-89.83,78.42,2.71
491,Anzio,75,IT,1554601686,81,41.45,12.63,53.01,5.82
492,Damaturu,8,NG,1554601695,42,11.75,11.96,80.76,12.21
493,Usinsk,20,RU,1554601695,89,66.0,57.56,22.8,10.2
494,Awbari,20,LY,1554601695,50,26.59,12.77,57.99,4.94
495,Alekseyevka,40,RU,1554598800,93,53.25,50.49,41.0,15.66
496,Loandjili,75,CG,1554598800,94,-4.77,11.87,78.8,2.24
497,Presidencia Roque Saenz Pena,0,AR,1554601696,85,-26.79,-60.44,55.29,2.93
498,Ancud,90,CL,1554598800,100,-41.87,-73.83,53.6,9.17
499,Buzdyak,20,RU,1554601696,89,54.57,54.53,31.35,10.09
500,Occhiobello,40,IT,1554601674,100,44.92,11.58,50.0,3.36
501,Chhindwara,0,IN,1554601697,21,22.06,78.94,88.95,10.76
502,Khani,0,GE,1554598800,87,41.96,42.96,50.0,3.36
503,Kapit,20,MY,1554601697,78,2.02,112.94,82.38,2.93
504,Woodstock,75,CA,1554601506,81,43.13,-80.75,52.0,2.24
505,Southampton,32,GB,1554601382,87,50.9,-1.4,46.99,12.75
506,Kuytun,24,RU,1554601697,45,54.34,101.51,35.67,7.96
507,Kuala Pilah,75,MY,1554600600,78,2.74,102.25,82.4,8.05
508,Campbell River,90,CA,1554601569,75,50.02,-125.24,48.2,9.17
509,Monopoli,0,IT,1554601584,93,40.95,17.3,55.0,5.82
510,Black River,20,JM,1554600701,74,18.03,-77.85,80.6,3.36
511,Plouzane,90,FR,1554601687,93,48.38,-4.62,48.99,5.82
512,Sibu,75,MY,1554598800,88,2.29,111.83,82.4,4.7
513,Luganville,92,VU,1554601698,100,-15.51,167.18,78.42,7.74
514,Fare,92,PF,1554601699,96,-16.7,-151.02,85.08,15.01
515,Banda Aceh,64,ID,1554601699,72,5.56,95.32,85.44,1.03
516,Farakka,92,IN,1554601699,99,24.79,87.91,70.86,6.96
517,Parana,88,BR,1554601699,96,-7.52,-72.89,72.3,5.61
518,Palimbang,40,PH,1554601685,62,14.9,120.78,91.0,2.24
519,Santiago del Estero,0,AR,1554601700,73,-27.8,-64.26,56.28,6.4
520,Keetmanshoop,44,NA,1554598800,30,-26.57,18.15,69.8,10.29
521,Ahipara,0,NZ,1554601700,79,-35.17,173.16,64.65,12.66
522,Aneho,20,TG,1554598800,88,6.23,1.6,82.4,11.41
523,Yar-Sale,8,RU,1554601701,81,66.83,70.83,22.98,17.81
524,Margate,75,AU,1554601696,45,-43.03,147.26,66.99,13.87
525,Nur,0,PL,1554601457,65,52.67,22.32,39.99,9.86
526,Supaul,24,IN,1554601701,82,26.12,86.6,73.92,9.19
527,Sampit,0,ID,1554601601,96,-2.54,112.95,86.16,5.17
528,Neiafu,20,TO,1554598800,79,-18.65,-173.98,86.0,10.29
529,Aqtobe,0,KZ,1554598800,92,50.28,57.21,30.2,9.75
530,Rio Tinto,75,BR,1554598800,94,-6.8,-35.08,78.8,1.12
531,Taybad,0,IR,1554601702,92,34.74,60.78,54.03,6.73
532,Hovd,75,NO,1554601501,83,63.83,10.7,41.0,16.11
533,Saint-Louis,75,CH,1554601699,87,47.59,7.56,46.99,3.36
534,Maumere,76,ID,1554601703,100,-8.63,122.22,81.75,8.86
535,Yerbogachen,0,RU,1554601703,62,61.28,108.01,32.88,7.4
536,Sao Felix do Xingu,32,BR,1554601535,96,-6.64,-51.99,74.28,2.26
537,Wuan,0,CN,1554601703,75,31.68,112.0,72.12,5.28
538,Xiaoweizhai,0,CN,1554601703,77,26.23,107.51,67.26,3.6
539,Tsabong,12,BW,1554601704,91,-26.02,22.4,59.16,7.63
540,Boali,40,CF,1554598800,94,4.81,18.11,78.8,4.7
541,Vostok,24,RU,1554601704,57,46.45,135.83,39.45,2.93
542,Castletown,32,GB,1554601702,87,50.57,-2.44,46.99,10.29
543,Grindavik,0,IS,1554601017,100,63.84,-22.43,39.0,5.82
544,Kovdor,92,RU,1554601704,84,67.56,30.47,28.56,2.37
